{"type":"FeatureCollection","name":"rival_address","crs":{"type":"name","properties":{"name":"urn:ogc:def:crs:OGC:1.3:CRS84"}},"features":[{"type":"Feature","properties":{"地址":"龙源新一巷24号之一(陈家祠地铁站F口步行310米)","城市":"广州市","店名":"优购哆_(荔湾店)"},"geometry":{"type":"Point","coordinates":[113.245103,23.127804]}},{"type":"Feature","properties":{"地址":"江南西路润汇大厦东座快易家便利店对面巷子负一楼","城市":"广州市","店名":"优购哆_(海珠店)"},"geometry":{"type":"Point","coordinates":[113.270453,23.09507]}},{"type":"Feature","properties":{"地址":"三元里大道930号机安公司检测大楼201号","城市":"广州市","店名":"优购哆_(三元里店)"},"geometry":{"type":"Point","coordinates":[113.252465,23.178181]}},{"type":"Feature","properties":{"地址":"中山大道西105号17号","城市":"广州市","店名":"优购哆_(华师店)"},"geometry":{"type":"Point","coordinates":[113.361809,23.138926]}},{"type":"Feature","properties":{"地址":"鹭江西街5号101铺","城市":"广州市","店名":"优购哆_(鹭江店)"},"geometry":{"type":"Point","coordinates":[113.307121,23.093409]}},{"type":"Feature","properties":{"地址":"鹤龙街彭上大元一横路8号101室","城市":"广州市","店名":"优购哆_(嘉禾店)"},"geometry":{"type":"Point","coordinates":[113.282301,23.231875]}},{"type":"Feature","properties":{"地址":"黄石街道黄石西路石岗大路9号之1A213","城市":"广州市","店名":"优购哆_(石井店)"},"geometry":{"type":"Point","coordinates":[113.252819,23.207741]}},{"type":"Feature","properties":{"地址":"钟村南站·未来域东(毓宏街南)优购哆超市","城市":"广州市","店名":"优购哆_(钟村店)"},"geometry":{"type":"Point","coordinates":[113.31179,22.977691]}},{"type":"Feature","properties":{"地址":"黄州工业区2栋东梯2楼201","城市":"广州市","店名":"优购哆_(车陂店)"},"geometry":{"type":"Point","coordinates":[113.388525,23.119818]}},{"type":"Feature","properties":{"地址":"大石街振华路3号107","城市":"广州市","店名":"优购哆_(大石店)"},"geometry":{"type":"Point","coordinates":[113.32073,23.028623]}},{"type":"Feature","properties":{"地址":"市桥街道环城西路30号","城市":"广州市","店名":"优购哆_(番禺店)"},"geometry":{"type":"Point","coordinates":[113.362886,22.939256]}},{"type":"Feature","properties":{"地址":"万博暑基创意产业园6栋103号","城市":"广州市","店名":"优购哆_(万博店)"},"geometry":{"type":"Point","coordinates":[113.349323,23.009787]}},{"type":"Feature","properties":{"地址":"官园吓路8号B栋202","城市":"广州市","店名":"优购哆_(新塘店)"},"geometry":{"type":"Point","coordinates":[113.63374,23.131356]}},{"type":"Feature","properties":{"地址":"桂城街道桂花市场a02(桂城地铁站D1口步行240米)","城市":"佛山市","店名":"优购哆_(南海店)"},"geometry":{"type":"Point","coordinates":[113.139316,23.03117]}},{"type":"Feature","properties":{"地址":"绿影西街13号商铺","城市":"佛山市","店名":"优购哆_(季华园店)"},"geometry":{"type":"Point","coordinates":[113.106681,23.00578]}},{"type":"Feature","properties":{"地址":"湖景路13号首层P7","城市":"佛山市","店名":"优购哆_(亚艺公园店)"},"geometry":{"type":"Point","coordinates":[113.140958,23.005484]}},{"type":"Feature","properties":{"地址":"桂城街道ipark购物中心负一层016铺(优购多生活超市)","城市":"佛山市","店名":"优购哆_(千灯湖店)"},"geometry":{"type":"Point","coordinates":[113.157542,23.061828]}},{"type":"Feature","properties":{"地址":"大良街道升平社区南国中路29号顺兴花苑二层4号","城市":"佛山市","店名":"优购哆_(大良店)"},"geometry":{"type":"Point","coordinates":[113.262717,22.827787]}},{"type":"Feature","properties":{"地址":"容桂社区金凤制衣厂A座一楼","城市":"佛山市","店名":"优购哆_(容桂店)"},"geometry":{"type":"Point","coordinates":[113.279976,22.76856]}},{"type":"Feature","properties":{"地址":"南城街道莞太路南城段68号4栋沙苑佳榕市场2层214室","城市":"东莞市","店名":"优购哆_(南城店)"},"geometry":{"type":"Point","coordinates":[113.738738,23.012664]}},{"type":"Feature","properties":{"地址":"南城区上手村五巷72号(德铭物业右斜对面)二楼208室","城市":"东莞市","店名":"优购哆_(西平店)"},"geometry":{"type":"Point","coordinates":[113.760346,22.990013]}},{"type":"Feature","properties":{"地址":"北隅光明路与北隅沿河路交叉口西80米","城市":"东莞市","店名":"优购哆_"},"geometry":{"type":"Point","coordinates":[113.750892,23.045864]}},{"type":"Feature","properties":{"地址":"广东省莞城街道罗沙东兴路147号201室","城市":"东莞市","店名":"优购哆_(威尼斯店)"},"geometry":{"type":"Point","coordinates":[113.770016,23.040546]}},{"type":"Feature","properties":{"地址":"共和世家北2门旁(皇岗村地铁站A口步行80米)","城市":"深圳市","店名":"优购哆_(福田店)"},"geometry":{"type":"Point","coordinates":[114.058661,22.522441]}},{"type":"Feature","properties":{"地址":"香丽大厦(景田地铁站F口步行430米)","城市":"深圳市","店名":"优购哆_(景田店)"},"geometry":{"type":"Point","coordinates":[114.039842,22.551524]}},{"type":"Feature","properties":{"地址":"嘉汇新城嘉汇广场G层109","城市":"深圳市","店名":"优购哆_(华强北店)"},"geometry":{"type":"Point","coordinates":[114.080793,22.538302]}},{"type":"Feature","properties":{"地址":"翠竹街道水贝社区水田一街12号肉菜市场2楼202","城市":"深圳市","店名":"优购哆_(水贝店)"},"geometry":{"type":"Point","coordinates":[114.124087,22.566534]}},{"type":"Feature","properties":{"地址":"民治街道南景新村三区3栋一楼3-4号","城市":"深圳市","店名":"优购哆_(民治店)"},"geometry":{"type":"Point","coordinates":[114.037552,22.617022]}},{"type":"Feature","properties":{"地址":"布吉街道金昌大厦b栋1楼104-108","城市":"深圳市","店名":"优购哆_(布吉店)"},"geometry":{"type":"Point","coordinates":[114.121144,22.609189]}},{"type":"Feature","properties":{"地址":"文化街25号","城市":"深圳市","店名":"优购哆_(龙华店)"},"geometry":{"type":"Point","coordinates":[114.013809,22.656541]}},{"type":"Feature","properties":{"地址":"新安街道海乐社区41区宝乐二街16号三厂房201A","城市":"深圳市","店名":"优购哆_(翻身店)"},"geometry":{"type":"Point","coordinates":[113.900698,22.557446]}},{"type":"Feature","properties":{"地址":"华乐六联路62-2","城市":"深圳市","店名":"优购哆_(四联店)"},"geometry":{"type":"Point","coordinates":[114.192444,22.643334]}},{"type":"Feature","properties":{"地址":"锐轩公寓西侧(合水口地铁站D口步行230米)","城市":"深圳市","店名":"优购哆"},"geometry":{"type":"Point","coordinates":[113.883393,22.779965]}},{"type":"Feature","properties":{"地址":"杨马市场路杨马市场7栋102","城市":"深圳市","店名":"优购哆_(坂田店)"},"geometry":{"type":"Point","coordinates":[114.071951,22.62903]}},{"type":"Feature","properties":{"地址":"南山街道南园枫叶公寓B座112-113号","城市":"深圳市","店名":"优购哆_仓库(南山店)"},"geometry":{"type":"Point","coordinates":[113.921261,22.515602]}},{"type":"Feature","properties":{"地址":"凤凰街道甲子塘第二工业区4排1号1栋201","城市":"深圳市","店名":"优购哆_(长圳店)"},"geometry":{"type":"Point","coordinates":[113.921809,22.728693]}},{"type":"Feature","properties":{"地址":"沙园路6号","城市":"深圳市","店名":"优购哆_(沙井店)"},"geometry":{"type":"Point","coordinates":[113.820164,22.727814]}},{"type":"Feature","properties":{"地址":"辅城坳社区凤岐路120号C栋103","城市":"深圳市","店名":"优购哆_(平湖店)"},"geometry":{"type":"Point","coordinates":[114.115001,22.690073]}},{"type":"Feature","properties":{"地址":"龙岗街道平罗路8号2楼201","城市":"深圳市","店名":"优购哆_(龙岗店)"},"geometry":{"type":"Point","coordinates":[114.269758,22.726024]}},{"type":"Feature","properties":{"地址":"登良社区南山大道1086号南园枫叶公寓112-113","城市":"深圳市","店名":"优购哆_(阳光科创中心店)"},"geometry":{"type":"Point","coordinates":[113.915162,22.513695]}},{"type":"Feature","properties":{"地址":"福海街道桥头社区桥荣路48号106铺","城市":"深圳市","店名":"优购哆_(桥头店)"},"geometry":{"type":"Point","coordinates":[113.806222,22.68663]}},{"type":"Feature","properties":{"地址":"光明区公明街道下村社区下工路15号107","城市":"深圳市","店名":"优购哆_(合水口店)"},"geometry":{"type":"Point","coordinates":[113.883228,22.78619]}},{"type":"Feature","properties":{"地址":"西乡街道永丰社区1区9栋203","城市":"深圳市","店名":"优购多"},"geometry":{"type":"Point","coordinates":[113.870039,22.574601]}},{"type":"Feature","properties":{"地址":"广东省中山市优购哆生活超市(中山店)","城市":[],"店名":"优购哆_(中山店)"},"geometry":{"type":"Point","coordinates":[113.397481,22.527745]}},{"type":"Feature","properties":{"地址":"景丰商务中心105-106档","城市":"广州市","店名":"松鼠_"},"geometry":{"type":"Point","coordinates":[113.262286,23.161823]}},{"type":"Feature","properties":{"地址":"香雪大道西351号首层29商铺","城市":"广州市","店名":"松鼠_(萝岗店)"},"geometry":{"type":"Point","coordinates":[113.489891,23.177016]}},{"type":"Feature","properties":{"地址":"联边彭上兴富路6号102铺","城市":"广州市","店名":"松鼠_(汇桥大厦店)"},"geometry":{"type":"Point","coordinates":[113.299144,23.225063]}},{"type":"Feature","properties":{"地址":"天河东路153号富海大厦首层101-103","城市":"广州市","店名":"松鼠乐购"},"geometry":{"type":"Point","coordinates":[113.332365,23.136547]}},{"type":"Feature","properties":{"地址":"瑶台大街与朝阳大街交叉口东北80米","城市":"广州市","店名":"松鼠便利(瑶台大街店)"},"geometry":{"type":"Point","coordinates":[113.252983,23.158458]}},{"type":"Feature","properties":{"地址":"南洲路宝兴街16号","城市":"广州市","店名":"松鼠_(瑞宝花园店)"},"geometry":{"type":"Point","coordinates":[113.296189,23.067775]}},{"type":"Feature","properties":{"地址":"花湾路613号","城市":"广州市","店名":"松鼠_(花湾路店)"},"geometry":{"type":"Point","coordinates":[113.239243,23.083378]}},{"type":"Feature","properties":{"地址":"金东南路名古仓停车场内1号144房","城市":"广州市","店名":"松鼠_(车陂店)"},"geometry":{"type":"Point","coordinates":[113.397791,23.113179]}},{"type":"Feature","properties":{"地址":"西关幼儿园南门旁","城市":"广州市","店名":"松鼠_(西片周门小区店)"},"geometry":{"type":"Point","coordinates":[113.237819,23.130134]}},{"type":"Feature","properties":{"地址":"白云区嘉禾望岗大马路6号社岭工业园1栋103号松鼠便利","城市":"广州市","店名":"松鼠便利嘉禾望岗店"},"geometry":{"type":"Point","coordinates":[113.282494,23.236744]}},{"type":"Feature","properties":{"地址":"花蕾路红棉苑南区(花地湾地铁站C口步行300米)","城市":"广州市","店名":"松鼠便利店"},"geometry":{"type":"Point","coordinates":[113.232625,23.08925]}},{"type":"Feature","properties":{"地址":"新港西路40号江南新苑","城市":"广州市","店名":"松鼠_(江南新苑店)"},"geometry":{"type":"Point","coordinates":[113.285607,23.090902]}},{"type":"Feature","properties":{"地址":"机场路34号3楼","城市":"广州市","店名":"松鼠便利(机场路辅路店)"},"geometry":{"type":"Point","coordinates":[113.263306,23.161158]}},{"type":"Feature","properties":{"地址":"西成路8号人和万事达广场","城市":"广州市","店名":"松鼠_(人和万事达广场店)"},"geometry":{"type":"Point","coordinates":[113.296185,23.340991]}},{"type":"Feature","properties":{"地址":"石槎路与新碧街交叉口东北200米","城市":"广州市","店名":"轻松鼠_(白云店)"},"geometry":{"type":"Point","coordinates":[113.243931,23.206345]}},{"type":"Feature","properties":{"地址":"白云湖街道大冈西街68号1楼","城市":"广州市","店名":"松鼠便利(大冈西街店)"},"geometry":{"type":"Point","coordinates":[113.238271,23.218787]}},{"type":"Feature","properties":{"地址":"邮政大厦(花城路地铁站D口步行250米)","城市":"广州市","店名":"松鼠_(邮政大厦店)"},"geometry":{"type":"Point","coordinates":[113.212896,23.377473]}},{"type":"Feature","properties":{"地址":"员村路180号","城市":"广州市","店名":"松鼠便利(怡景花园店)"},"geometry":{"type":"Point","coordinates":[113.35552,23.116702]}},{"type":"Feature","properties":{"地址":"市桥街道西环路139号松鼠便利超市","城市":"广州市","店名":"松鼠便利(西环路店)"},"geometry":{"type":"Point","coordinates":[113.354008,22.952282]}},{"type":"Feature","properties":{"地址":"礼村南路3号沃德大厦F1层","城市":"广州市","店名":"松鼠_(沃德大厦店)"},"geometry":{"type":"Point","coordinates":[113.320293,23.008066]}},{"type":"Feature","properties":{"地址":"黄村北环路3号","城市":"广州市","店名":"松鼠_(东圃店)"},"geometry":{"type":"Point","coordinates":[113.412091,23.127639]}},{"type":"Feature","properties":{"地址":"花都大道中134号104铺","城市":"广州市","店名":"松鼠_(花都大道辅路店)"},"geometry":{"type":"Point","coordinates":[113.195178,23.425108]}},{"type":"Feature","properties":{"地址":"新华街道公益华侨商业城4-14号","城市":"广州市","店名":"松鼠_(花都中心店)"},"geometry":{"type":"Point","coordinates":[113.218467,23.393463]}},{"type":"Feature","properties":{"地址":"华南新城路与青阳大道交叉口东北80米","城市":"广州市","店名":"松鼠便利"},"geometry":{"type":"Point","coordinates":[113.348131,23.015778]}},{"type":"Feature","properties":{"地址":"市桥街道市桥街坑口路89号之七107(7号楼右转直进)","城市":"广州市","店名":"松鼠便利(坑口路西华大街店)"},"geometry":{"type":"Point","coordinates":[113.373223,22.941014]}},{"type":"Feature","properties":{"地址":"东平马市岭东街12号101","城市":"广州市","店名":"松鼠便利店超市(永平店)"},"geometry":{"type":"Point","coordinates":[113.311508,23.25044]}},{"type":"Feature","properties":{"地址":"南村镇官塘村镇西路3号116铺","城市":"广州市","店名":"松鼠便利(万博店)"},"geometry":{"type":"Point","coordinates":[113.348191,23.015757]}},{"type":"Feature","properties":{"地址":"新村二十六巷4号104室","城市":"东莞市","店名":"松鼠_(国贸店)"},"geometry":{"type":"Point","coordinates":[113.759646,23.021237]}},{"type":"Feature","properties":{"地址":"杨柳路与新基南路交叉口北120米","城市":"东莞市","店名":"松鼠_(南城店)"},"geometry":{"type":"Point","coordinates":[113.729211,23.005069]}},{"type":"Feature","properties":{"地址":"阳光假日小区西南门东80米","城市":"东莞市","店名":"松鼠_(火炼树店)"},"geometry":{"type":"Point","coordinates":[113.763666,22.996991]}},{"type":"Feature","properties":{"地址":"石井大道82号富茂大厦(石井路)","城市":"东莞市","店名":"松鼠_(富茂大厦店)"},"geometry":{"type":"Point","coordinates":[113.796516,23.025767]}},{"type":"Feature","properties":{"地址":"莞樟路83号金海商务大厦-191号1栋109","城市":"东莞市","店名":"松鼠_(东城万达店)"},"geometry":{"type":"Point","coordinates":[113.79076,23.030929]}},{"type":"Feature","properties":{"地址":"雅园工业区路2号","城市":"东莞市","店名":"松鼠_西平店(雅园广园街店)"},"geometry":{"type":"Point","coordinates":[113.763203,22.98217]}},{"type":"Feature","properties":{"地址":"滨河路与沙头西大路交叉口东南60米","城市":"东莞市","店名":"松鼠_(长安店)"},"geometry":{"type":"Point","coordinates":[113.762164,22.786556]}},{"type":"Feature","properties":{"地址":"梁屋村前路与梁屋村前路南一巷交叉口北80米","城市":"东莞市","店名":"松鼠_(梁屋村前路店)"},"geometry":{"type":"Point","coordinates":[113.692032,22.807476]}},{"type":"Feature","properties":{"地址":"石碣镇俄村兴盛二街103室","城市":"东莞市","店名":"松鼠_石碣店"},"geometry":{"type":"Point","coordinates":[113.790557,23.09573]}},{"type":"Feature","properties":{"地址":"万江街道莲丰路与河堤北路交叉口西140米协大大厦","城市":"东莞市","店名":"松鼠便利(莲子坊商业街店)"},"geometry":{"type":"Point","coordinates":[113.707311,23.029382]}},{"type":"Feature","properties":{"地址":"长安镇涌头海安街五巷一号安宇综合楼侧门","城市":"东莞市","店名":"松鼠_(安宇综合楼店)"},"geometry":{"type":"Point","coordinates":[113.824917,22.799292]}},{"type":"Feature","properties":{"地址":"石龙坑金龙街与校园街交叉口西南40米","城市":"东莞市","店名":"松鼠_(石龙坑金龙街店)"},"geometry":{"type":"Point","coordinates":[113.885741,22.983166]}},{"type":"Feature","properties":{"地址":"大岭山镇井尾塘南二巷13号101室","城市":"东莞市","店名":"松鼠_(大岭山店)"},"geometry":{"type":"Point","coordinates":[113.843081,22.913112]}},{"type":"Feature","properties":{"地址":"厚街镇裕鹤新村八巷","城市":"东莞市","店名":"松鼠_(厚街店)"},"geometry":{"type":"Point","coordinates":[113.669629,22.941338]}},{"type":"Feature","properties":{"地址":"虎门镇博美社区博涌路67号1楼","城市":"东莞市","店名":"松鼠_(虎门国际购物中心店)"},"geometry":{"type":"Point","coordinates":[113.682632,22.813141]}},{"type":"Feature","properties":{"地址":"大朗镇牛过路123号时易科创园(院子里)","城市":"东莞市","店名":"松鼠_(大朗店)"},"geometry":{"type":"Point","coordinates":[113.926424,22.942657]}},{"type":"Feature","properties":{"地址":"厚街镇河田石夏三巷3号","城市":"东莞市","店名":"松鼠_(厚街万达店)"},"geometry":{"type":"Point","coordinates":[113.678156,22.932639]}},{"type":"Feature","properties":{"地址":"锦江二路2号","城市":"东莞市","店名":"松鼠便利(锦江二路店)"},"geometry":{"type":"Point","coordinates":[113.79979,22.796349]}},{"type":"Feature","properties":{"地址":"塘厦镇龙环路2号112","城市":"东莞市","店名":"松鼠_(塘厦店)"},"geometry":{"type":"Point","coordinates":[114.082277,22.8054]}},{"type":"Feature","properties":{"地址":"凤岗镇油甘埔村金泰新村一街5号103","城市":"东莞市","店名":"松鼠_(凤岗店)"},"geometry":{"type":"Point","coordinates":[114.173905,22.715193]}},{"type":"Feature","properties":{"地址":"东莞市塘厦镇莲湖黎屋二巷38号","城市":"东莞市","店名":"松鼠_(塘厦莲湖店)"},"geometry":{"type":"Point","coordinates":[114.102615,22.826871]}},{"type":"Feature","properties":{"地址":"桂城街道东二社区南兴村南兴工业区八号厂房自编106号之一","城市":"佛山市","店名":"松鼠_(桂城店)"},"geometry":{"type":"Point","coordinates":[113.151506,23.029424]}},{"type":"Feature","properties":{"地址":"锦园路与海八东路辅路交叉口东南80米","城市":"佛山市","店名":"松鼠_(保利花园店)"},"geometry":{"type":"Point","coordinates":[113.152472,23.066222]}},{"type":"Feature","properties":{"地址":"佛山大道中6号恒强·春天里","城市":"佛山市","店名":"松鼠_(恒强·春天里店)"},"geometry":{"type":"Point","coordinates":[113.102671,23.020394]}},{"type":"Feature","properties":{"地址":"祖庙街道安怀里2号","城市":"佛山市","店名":"松鼠_(禅城店)"},"geometry":{"type":"Point","coordinates":[113.125308,23.037361]}},{"type":"Feature","properties":{"地址":"佛平三路1号金色领域(礌岗地铁站D口步行360米)","城市":"佛山市","店名":"松鼠_(金色领域店)"},"geometry":{"type":"Point","coordinates":[113.158447,23.040842]}},{"type":"Feature","properties":{"地址":"谭地围一巷2号","城市":"佛山市","店名":"松鼠便利店(魁奇路店)"},"geometry":{"type":"Point","coordinates":[113.099547,22.997202]}},{"type":"Feature","properties":{"地址":"丝织路与佛山大道北交叉口西北120米","城市":"佛山市","店名":"松鼠便利(金沙新城店)"},"geometry":{"type":"Point","coordinates":[113.101121,23.040898]}},{"type":"Feature","properties":{"地址":"江心一街与建设街交叉口北60米","城市":"佛山市","店名":"松鼠_(江心新村东苑二街店)"},"geometry":{"type":"Point","coordinates":[113.170393,23.116726]}},{"type":"Feature","properties":{"地址":"雄峰花园北门旁","城市":"佛山市","店名":"松鼠_(雄峰花园店)"},"geometry":{"type":"Point","coordinates":[113.211503,22.923873]}},{"type":"Feature","properties":{"地址":"季华六路15号禅城绿地金融中心P10,P11号","城市":"佛山市","店名":"松鼠_(禅城绿地金融中心店)"},"geometry":{"type":"Point","coordinates":[113.142058,23.014116]}},{"type":"Feature","properties":{"地址":"容桂街道细滘社区桂新西路45号松鼠便利超市(细滘店)","城市":"佛山市","店名":"松鼠_(细滘店)"},"geometry":{"type":"Point","coordinates":[113.263894,22.7539]}},{"type":"Feature","properties":{"地址":"教育路1号金沙天地C栋F1层","城市":"佛山市","店名":"松鼠_(金沙天地C栋店)"},"geometry":{"type":"Point","coordinates":[113.207929,23.135688]}},{"type":"Feature","properties":{"地址":"凤山中路12号凤岭名都","城市":"佛山市","店名":"松鼠便利(凤岭名都店)"},"geometry":{"type":"Point","coordinates":[113.246418,22.84041]}}]}
