{"type":"FeatureCollection","name":"对手位置","crs":{"type":"name","properties":{"name":"urn:ogc:def:crs:OGC:1.3:CRS84"}},"features":[{"type":"Feature","properties":{"地址":"龙源新一巷24号之一(陈家祠地铁站F口步行310米)","城市":"广州市","店名":"优购哆生活超市(荔湾店)"},"geometry":{"type":"Point","coordinates":[113.245103,23.127804]}},{"type":"Feature","properties":{"地址":"江南西路润汇大厦东座快易家便利店对面巷子负一楼","城市":"广州市","店名":"优购哆生活超市(海珠店)"},"geometry":{"type":"Point","coordinates":[113.270453,23.09507]}},{"type":"Feature","properties":{"地址":"三元里大道930号机安公司检测大楼201号","城市":"广州市","店名":"优购哆生活超市(三元里店)"},"geometry":{"type":"Point","coordinates":[113.252465,23.178181]}},{"type":"Feature","properties":{"地址":"中山大道西105号17号","城市":"广州市","店名":"优购哆生活超市(华师店)"},"geometry":{"type":"Point","coordinates":[113.361809,23.138926]}},{"type":"Feature","properties":{"地址":"鹭江西街5号101铺","城市":"广州市","店名":"优购哆生活超市(鹭江店)"},"geometry":{"type":"Point","coordinates":[113.307121,23.093409]}},{"type":"Feature","properties":{"地址":"鹤龙街彭上大元一横路8号101室","城市":"广州市","店名":"优购哆生活超市(嘉禾店)"},"geometry":{"type":"Point","coordinates":[113.282301,23.231875]}},{"type":"Feature","properties":{"地址":"黄石街道黄石西路石岗大路9号之1A213","城市":"广州市","店名":"优购哆生活超市(石井店)"},"geometry":{"type":"Point","coordinates":[113.252819,23.207741]}},{"type":"Feature","properties":{"地址":"钟村南站·未来域东(毓宏街南)优购哆超市","城市":"广州市","店名":"优购哆生活超市(钟村店)"},"geometry":{"type":"Point","coordinates":[113.31179,22.977691]}},{"type":"Feature","properties":{"地址":"黄州工业区2栋东梯2楼201","城市":"广州市","店名":"优购哆生活超市(车陂店)"},"geometry":{"type":"Point","coordinates":[113.388525,23.119818]}},{"type":"Feature","properties":{"地址":"大石街振华路3号107","城市":"广州市","店名":"优购哆生活超市(大石店)"},"geometry":{"type":"Point","coordinates":[113.32073,23.028623]}},{"type":"Feature","properties":{"地址":"市桥街道环城西路30号","城市":"广州市","店名":"优购哆生活超市(番禺店)"},"geometry":{"type":"Point","coordinates":[113.362886,22.939256]}},{"type":"Feature","properties":{"地址":"万博暑基创意产业园6栋103号","城市":"广州市","店名":"优购哆生活超市(万博店)"},"geometry":{"type":"Point","coordinates":[113.349323,23.009787]}},{"type":"Feature","properties":{"地址":"官园吓路8号B栋202","城市":"广州市","店名":"优购哆生活超市(新塘店)"},"geometry":{"type":"Point","coordinates":[113.63374,23.131356]}},{"type":"Feature","properties":{"地址":"桂城街道桂花市场a02(桂城地铁站D1口步行240米)","城市":"佛山市","店名":"优购哆生活超市(南海店)"},"geometry":{"type":"Point","coordinates":[113.139316,23.03117]}},{"type":"Feature","properties":{"地址":"绿影西街13号商铺","城市":"佛山市","店名":"优购哆生活超市(季华园店)"},"geometry":{"type":"Point","coordinates":[113.106681,23.00578]}},{"type":"Feature","properties":{"地址":"湖景路13号首层P7","城市":"佛山市","店名":"优购哆生活超市(亚艺公园店)"},"geometry":{"type":"Point","coordinates":[113.140958,23.005484]}},{"type":"Feature","properties":{"地址":"桂城街道ipark购物中心负一层016铺(优购多生活超市)","城市":"佛山市","店名":"优购哆生活超市(千灯湖店)"},"geometry":{"type":"Point","coordinates":[113.157542,23.061828]}},{"type":"Feature","properties":{"地址":"大良街道升平社区南国中路29号顺兴花苑二层4号","城市":"佛山市","店名":"优购哆生活超市(大良店)"},"geometry":{"type":"Point","coordinates":[113.262717,22.827787]}},{"type":"Feature","properties":{"地址":"容桂社区金凤制衣厂A座一楼","城市":"佛山市","店名":"优购哆生活超市(容桂店)"},"geometry":{"type":"Point","coordinates":[113.279976,22.76856]}},{"type":"Feature","properties":{"地址":"南城街道莞太路南城段68号4栋沙苑佳榕市场2层214室","城市":"东莞市","店名":"优购哆生活超市(南城店)"},"geometry":{"type":"Point","coordinates":[113.738738,23.012664]}},{"type":"Feature","properties":{"地址":"南城区上手村五巷72号(德铭物业右斜对面)二楼208室","城市":"东莞市","店名":"优购哆生活超市(西平店)"},"geometry":{"type":"Point","coordinates":[113.760346,22.990013]}},{"type":"Feature","properties":{"地址":"北隅光明路与北隅沿河路交叉口西80米","城市":"东莞市","店名":"优购哆生活超市"},"geometry":{"type":"Point","coordinates":[113.750892,23.045864]}},{"type":"Feature","properties":{"地址":"广东省莞城街道罗沙东兴路147号201室","城市":"东莞市","店名":"优购哆生活超市(威尼斯店)"},"geometry":{"type":"Point","coordinates":[113.770016,23.040546]}},{"type":"Feature","properties":{"地址":"共和世家北2门旁(皇岗村地铁站A口步行80米)","城市":"深圳市","店名":"优购哆生活超市(福田店)"},"geometry":{"type":"Point","coordinates":[114.058661,22.522441]}},{"type":"Feature","properties":{"地址":"香丽大厦(景田地铁站F口步行430米)","城市":"深圳市","店名":"优购哆生活超市(景田店)"},"geometry":{"type":"Point","coordinates":[114.039842,22.551524]}},{"type":"Feature","properties":{"地址":"嘉汇新城嘉汇广场G层109","城市":"深圳市","店名":"优购哆生活超市(华强北店)"},"geometry":{"type":"Point","coordinates":[114.080793,22.538302]}},{"type":"Feature","properties":{"地址":"翠竹街道水贝社区水田一街12号肉菜市场2楼202","城市":"深圳市","店名":"优购哆生活超市(水贝店)"},"geometry":{"type":"Point","coordinates":[114.124087,22.566534]}},{"type":"Feature","properties":{"地址":"民治街道南景新村三区3栋一楼3-4号","城市":"深圳市","店名":"优购哆生活超市(民治店)"},"geometry":{"type":"Point","coordinates":[114.037552,22.617022]}},{"type":"Feature","properties":{"地址":"布吉街道金昌大厦b栋1楼104-108","城市":"深圳市","店名":"优购哆生活超市(布吉店)"},"geometry":{"type":"Point","coordinates":[114.121144,22.609189]}},{"type":"Feature","properties":{"地址":"文化街25号","城市":"深圳市","店名":"优购哆生活超市(龙华店)"},"geometry":{"type":"Point","coordinates":[114.013809,22.656541]}},{"type":"Feature","properties":{"地址":"新安街道海乐社区41区宝乐二街16号三厂房201A","城市":"深圳市","店名":"优购哆生活超市(翻身店)"},"geometry":{"type":"Point","coordinates":[113.900698,22.557446]}},{"type":"Feature","properties":{"地址":"华乐六联路62-2","城市":"深圳市","店名":"优购哆生活超市(四联店)"},"geometry":{"type":"Point","coordinates":[114.192444,22.643334]}},{"type":"Feature","properties":{"地址":"锐轩公寓西侧(合水口地铁站D口步行230米)","城市":"深圳市","店名":"优购哆"},"geometry":{"type":"Point","coordinates":[113.883393,22.779965]}},{"type":"Feature","properties":{"地址":"杨马市场路杨马市场7栋102","城市":"深圳市","店名":"优购哆生活超市(坂田店)"},"geometry":{"type":"Point","coordinates":[114.071951,22.62903]}},{"type":"Feature","properties":{"地址":"南山街道南园枫叶公寓B座112-113号","城市":"深圳市","店名":"优购哆生活超市仓库(南山店)"},"geometry":{"type":"Point","coordinates":[113.921261,22.515602]}},{"type":"Feature","properties":{"地址":"凤凰街道甲子塘第二工业区4排1号1栋201","城市":"深圳市","店名":"优购哆生活超市(长圳店)"},"geometry":{"type":"Point","coordinates":[113.921809,22.728693]}},{"type":"Feature","properties":{"地址":"沙园路6号","城市":"深圳市","店名":"优购哆生活超市(沙井店)"},"geometry":{"type":"Point","coordinates":[113.820164,22.727814]}},{"type":"Feature","properties":{"地址":"辅城坳社区凤岐路120号C栋103","城市":"深圳市","店名":"优购哆生活超市(平湖店)"},"geometry":{"type":"Point","coordinates":[114.115001,22.690073]}},{"type":"Feature","properties":{"地址":"龙岗街道平罗路8号2楼201","城市":"深圳市","店名":"优购哆生活超市(龙岗店)"},"geometry":{"type":"Point","coordinates":[114.269758,22.726024]}},{"type":"Feature","properties":{"地址":"登良社区南山大道1086号南园枫叶公寓112-113","城市":"深圳市","店名":"优购哆生活超市(阳光科创中心店)"},"geometry":{"type":"Point","coordinates":[113.915162,22.513695]}},{"type":"Feature","properties":{"地址":"福海街道桥头社区桥荣路48号106铺","城市":"深圳市","店名":"优购哆生活超市(桥头店)"},"geometry":{"type":"Point","coordinates":[113.806222,22.68663]}},{"type":"Feature","properties":{"地址":"光明区公明街道下村社区下工路15号107","城市":"深圳市","店名":"优购哆生活超市(合水口店)"},"geometry":{"type":"Point","coordinates":[113.883228,22.78619]}},{"type":"Feature","properties":{"地址":"西乡街道永丰社区1区9栋203","城市":"深圳市","店名":"优购多"},"geometry":{"type":"Point","coordinates":[113.870039,22.574601]}}]}
